WarehouseID,City,Country,Latitude,Longitude
W005,Ahmedabad,India,23.0225,72.5714
W013,Mumbai,India,19.0760,72.8777
W015,Kolkata,India,22.5726,88.3639
W016,Chennai,India,13.0827,80.2707
W017,Pune,India,18.5204,73.8567
W018,Jaipur,India,26.9124,75.7873
W019,Lucknow,India,26.8467,80.9462
W020,Surat,India,21.1702,72.8311
W021,Bhopal,India,23.2599,77.4126
W022,Nagpur,India,21.1458,79.0882
W023,Indore,India,22.7196,75.8577
W024,Coimbatore,India,11.0168,76.9558